 
<?xml version="1.0" encoding="UTF-8"?>
<kml xmlns="http://earth.google.com/kml/2.1"><Document><Style id="restaurantStyle"><IconStyle id="restaurantIcon"><Icon><href>http://maps.google.com/mapfiles/kml/pal2/icon63.png</href></Icon></IconStyle></Style><Style id="barStyle"><IconStyle id="barIcon"><Icon><href>http://maps.google.com/mapfiles/kml/pal2/icon27.png</href></Icon></IconStyle></Style><Placemark id="placemark1"><name>Frankie Johnnie &amp; Luigo Too</name><description>939 W El Camino Real, Mountain View, CA</description><styleUrl>#restaurantStyle</styleUrl><Point><coordinates>-122.086,37.3863</coordinates></Point></Placemark><Placemark id="placemark2"><name>Amici's East Coast Pizzeria</name><description>790 Castro St, Mountain View, CA</description><styleUrl>#restaurantStyle</styleUrl><Point><coordinates>-122.083,37.3871</coordinates></Point></Placemark><Placemark id="placemark3"><name>Kapp's Pizza Bar &amp; Grill</name><description>191 Castro St, Mountain View, CA</description><styleUrl>#restaurantStyle</styleUrl><Point><coordinates>-122.079,37.3939</coordinates></Point></Placemark><Placemark id="placemark4"><name>Round Table Pizza: Mountain View</name><description>570 N Shoreline Blvd, Mountain View, CA</description><styleUrl>#restaurantStyle</styleUrl><Point><coordinates>-122.079,37.4027</coordinates></Point></Placemark><Placemark id="placemark5"><name>Tony &amp; Alba's Pizza &amp; Pasta</name><description>619 Escuela Ave, Mountain View, CA</description><styleUrl>#restaurantStyle</styleUrl><Point><coordinates>-122.096,37.394</coordinates></Point></Placemark><Placemark id="placemark6"><name>Oregano's Wood-Fired Pizza</name><description>4546 El Camino Real, Los Altos, CA</description><styleUrl>#restaurantStyle</styleUrl><Point><coordinates>-122.115,37.4017</coordinates></Point></Placemark><Placemark id="placemark7"><name>Round Table Pizza: Sunnyvale-Mary-Central Expy</name><description>415 N Mary Ave, Sunnyvale, CA</description><styleUrl>#restaurantStyle</styleUrl><Point><coordinates>-122.042,37.39</coordinates></Point></Placemark><Placemark id="placemark8"><name>Giordano's</name><description>730 N Rush St, Chicago, IL</description><styleUrl>#restaurantStyle</styleUrl><Point><coordinates>-87.6254,41.8957</coordinates></Point></Placemark><Placemark id="placemark9"><name>Filippi's Pizza Grotto</name><description>1747 India St, San Diego, CA</description><styleUrl>#restaurantStyle</styleUrl><Point><coordinates>-117.168,32.7238</coordinates></Point></Placemark><Placemark id="placemark10"><name>Pizzeria Paradiso</name><description>2029 P St NW, Washington, DC</description><styleUrl>#restaurantStyle</styleUrl><Point><coordinates>-77.0459,38.9096</coordinates></Point></Placemark><Placemark id="placemark11"><name>Tutta Bella Neapolitan Pizzera</name><description>4918 Rainier Ave S, Seattle, WA</description><styleUrl>#restaurantStyle</styleUrl><Point><coordinates>-122.285,47.5577</coordinates></Point></Placemark><Placemark id="placemark12"><name>Touche Pasta Pizza Pool</name><description>1425 NW Glisan St, Portland, OR</description><styleUrl>#restaurantStyle</styleUrl><Point><coordinates>-122.686,45.5265</coordinates></Point></Placemark><Placemark id="placemark13"><name>Piecora's New York Pizza</name><description>1401 E Madison St, Seattle, WA</description><styleUrl>#restaurantStyle</styleUrl><Point><coordinates>-122.314,47.614</coordinates></Point></Placemark><Placemark id="placemark14"><name>Pagliacci Pizza</name><description>550 Queen Anne Ave N, Seattle, WA</description><styleUrl>#restaurantStyle</styleUrl><Point><coordinates>-122.357,47.6239</coordinates></Point></Placemark><Placemark id="placemark15"><name>Zeeks Pizza - Phinney Ridge</name><description>6000 Phinney Ave N, Seattle, WA</description><styleUrl>#restaurantStyle</styleUrl><Point><coordinates>-122.354,47.6727</coordinates></Point></Placemark><Placemark id="placemark16"><name>Old Town Pizza</name><description>226 NW Davis St, Portland, OR</description><styleUrl>#restaurantStyle</styleUrl><Point><coordinates>-122.673,45.5246</coordinates></Point></Placemark><Placemark id="placemark17"><name>Zeeks Pizza - Belltown</name><description>419 Denny Way, Seattle, WA</description><styleUrl>#restaurantStyle</styleUrl><Point><coordinates>-122.348,47.6183</coordinates></Point></Placemark><Placemark id="placemark18"><name>Escape From New York Pizza</name><description>622 NW 23rd Ave, Portland, OR</description><styleUrl>#restaurantStyle</styleUrl><Point><coordinates>-122.699,45.5271</coordinates></Point></Placemark><Placemark id="placemark19"><name>Big Fred's Pizza Garden</name><description>1101 S 119th St, Omaha, NE</description><styleUrl>#restaurantStyle</styleUrl><Point><coordinates>-96.0988,41.2487</coordinates></Point></Placemark><Placemark id="placemark20"><name>Old Chicago</name><description>1111 Harney St, Omaha, NE</description><styleUrl>#restaurantStyle</styleUrl><Point><coordinates>-95.9307,41.2565</coordinates></Point></Placemark><Placemark id="placemark21"><name>Sgt Peffer's Cafe Italian</name><description>1501 N Saddle Creek Rd, Omaha, NE</description><styleUrl>#restaurantStyle</styleUrl><Point><coordinates>-95.9878,41.2731</coordinates></Point></Placemark><Placemark id="placemark22"><name>Mama's Pizza</name><description>715 N Saddle Creek Rd, Omaha, NE</description><styleUrl>#restaurantStyle</styleUrl><Point><coordinates>-95.9807,41.2659</coordinates></Point></Placemark><Placemark id="placemark23"><name>Zio's New York Style Pizzeria</name><description>1213 Howard St, Omaha, NE</description><styleUrl>#restaurantStyle</styleUrl><Point><coordinates>-95.932,41.2555</coordinates></Point></Placemark><Placemark id="placemark24"><name>Zio's New York Style Pizzeria</name><description>7834 W Dodge Rd, Omaha, NE</description><styleUrl>#restaurantStyle</styleUrl><Point><coordinates>-96.0564,41.2632</coordinates></Point></Placemark><Placemark id="placemark25"><name>La Casa Pizzaria</name><description>4432 Leavenworth St, Omaha, NE</description><styleUrl>#restaurantStyle</styleUrl><Point><coordinates>-95.9796,41.2524</coordinates></Point></Placemark><Placemark id="placemark26"><name>Lou Malnati's Pizzeria</name><description>439 N Wells St, Chicago, IL</description><styleUrl>#restaurantStyle</styleUrl><Point><coordinates>-87.6339,41.8903</coordinates></Point></Placemark><Placemark id="placemark27"><name>Piece Restaurant</name><description>1927 W North Ave, Chicago, IL</description><styleUrl>#restaurantStyle</styleUrl><Point><coordinates>-87.6761,41.9105</coordinates></Point></Placemark><Placemark id="placemark28"><name>Connie's Pizza Inc</name><description>2373 S Archer Ave, Chicago, IL</description><styleUrl>#restaurantStyle</styleUrl><Point><coordinates>-87.6417,41.8492</coordinates></Point></Placemark><Placemark id="placemark29"><name>Exchequer Restaurant</name><description>226 S Wabash Ave, Chicago, IL</description><styleUrl>#restaurantStyle</styleUrl><Point><coordinates>-87.6261,41.8792</coordinates></Point></Placemark><Placemark id="placemark30"><name>Coco's By The Falls</name><description>5339 Murray Street, Niagara Falls, Ontario</description><styleUrl>#restaurantStyle</styleUrl><Point><coordinates>-79.0827,43.0836</coordinates></Point></Placemark><Placemark id="placemark31"><name>Pompei</name><description>1531 W Taylor St, Chicago, IL</description><styleUrl>#restaurantStyle</styleUrl><Point><coordinates>-87.6648,41.8693</coordinates></Point></Placemark><Placemark id="placemark32"><name>Lynn's Paradise Cafe</name><description>984 Barret Ave, Louisville, KY</description><styleUrl>#restaurantStyle</styleUrl><Point><coordinates>-85.7285,38.2369</coordinates></Point></Placemark><Placemark id="placemark33"><name>Otto Restaurant Enoteca Pizza</name><description>1 5th Ave, New York, NY</description><styleUrl>#restaurantStyle</styleUrl><Point><coordinates>-73.9963,40.7322</coordinates></Point></Placemark><Placemark id="placemark34"><name>Grimaldi's</name><description>19 Old Fulton St, Brooklyn, NY</description><styleUrl>#restaurantStyle</styleUrl><Point><coordinates>-73.9937,40.7025</coordinates></Point></Placemark><Placemark id="placemark35"><name>Lombardi's</name><description>32 Spring St, New York, NY</description><styleUrl>#restaurantStyle</styleUrl><Point><coordinates>-73.9956,40.7217</coordinates></Point></Placemark><Placemark id="placemark36"><name>John's Pizzeria</name><description>278 Bleecker St, New York, NY</description><styleUrl>#restaurantStyle</styleUrl><Point><coordinates>-74.0033,40.7317</coordinates></Point></Placemark><Placemark id="placemark37"><name>John's Pizzeria</name><description>260 W 44th St, New York, NY</description><styleUrl>#restaurantStyle</styleUrl><Point><coordinates>-73.9877,40.7581</coordinates></Point></Placemark><Placemark id="placemark38"><name>Burger Joint</name><description>2175 Broadway, New York, NY</description><styleUrl>#restaurantStyle</styleUrl><Point><coordinates>-73.981,40.7824</coordinates></Point></Placemark><Placemark id="placemark39"><name>Frank Pepe Pizzeria Napoletana</name><description>157 Wooster St, New Haven, CT</description><styleUrl>#restaurantStyle</styleUrl><Point><coordinates>-72.917,41.3028</coordinates></Point></Placemark><Placemark id="placemark40"><name>Adrianne's Pizza Bar</name><description>54 Stone St, New York, NY</description><styleUrl>#restaurantStyle</styleUrl><Point><coordinates>-74.0101,40.7045</coordinates></Point></Placemark><Placemark id="placemark41"><name>Pizzeria Regina: Regina Pizza</name><description>11 1/2 Thacher St, Boston, MA</description><styleUrl>#restaurantStyle</styleUrl><Point><coordinates>-71.0568,42.3653</coordinates></Point></Placemark><Placemark id="placemark42"><name>Upper Crust</name><description>20 Charles St, Boston, MA</description><styleUrl>#restaurantStyle</styleUrl><Point><coordinates>-71.0697,42.3566</coordinates></Point></Placemark><Placemark id="placemark43"><name>Bertucci's Brick Oven Rstrnt</name><description>4 Brookline Pl, Brookline, MA</description><styleUrl>#restaurantStyle</styleUrl><Point><coordinates>-71.1153,42.3319</coordinates></Point></Placemark><Placemark id="placemark44"><name>Aquitaine</name><description>569 Tremont St, Boston, MA</description><styleUrl>#restaurantStyle</styleUrl><Point><coordinates>-71.0723,42.3436</coordinates></Point></Placemark><Placemark id="placemark45"><name>Bertucci's Brick Oven Rstrnt</name><description>43 Stanhope St, Boston, MA</description><styleUrl>#restaurantStyle</styleUrl><Point><coordinates>-71.0732,42.3483</coordinates></Point></Placemark><Placemark id="placemark46"><name>Upper Crust</name><description>286 Harvard St, Brookline, MA</description><styleUrl>#restaurantStyle</styleUrl><Point><coordinates>-71.1223,42.3429</coordinates></Point></Placemark><Placemark id="placemark47"><name>Bertucci's Brick Oven Rstrnt</name><description>799 Main St, Cambridge, MA</description><styleUrl>#restaurantStyle</styleUrl><Point><coordinates>-71.0972,42.3633</coordinates></Point></Placemark><Placemark id="placemark48"><name>Bertucci's Brick Oven Rstrnt</name><description>22 Merchants Row, Boston, MA</description><styleUrl>#restaurantStyle</styleUrl><Point><coordinates>-71.0555,42.3591</coordinates></Point></Placemark><Placemark id="placemark49"><name>Vinnie Van Go-Go's</name><description>317 W Bryan St, Savannah, GA</description><styleUrl>#restaurantStyle</styleUrl><Point><coordinates>-81.095,32.0812</coordinates></Point></Placemark><Placemark id="placemark50"><name>Domino's Pizza: Myrtle Beach</name><description>1706 S Kings Hwy # A, Myrtle Beach, SC</description><styleUrl>#restaurantStyle</styleUrl><Point><coordinates>-78.9051,33.6749</coordinates></Point></Placemark><Placemark id="placemark51"><name>East of Chicago Pizza Company</name><description>3901 North Kings Highway Suite 1, Myrtle Beach, SC</description><styleUrl>#restaurantStyle</styleUrl><Point><coordinates>-78.8556,33.7161</coordinates></Point></Placemark><Placemark id="placemark52"><name>Villa Tronco Italian Rstrnt</name><description>1213 Blanding St, Columbia, SC</description><styleUrl>#restaurantStyle</styleUrl><Point><coordinates>-81.0363,34.008</coordinates></Point></Placemark><Placemark id="placemark53"><name>Mellow Mushroom Pizza Bakers</name><description>11 W Liberty St, Savannah, GA</description><styleUrl>#restaurantStyle</styleUrl><Point><coordinates>-81.0937,32.0747</coordinates></Point></Placemark><Placemark id="placemark54"><name>Andolinis Pizza</name><description>82 Wentworth St, Charleston, SC</description><styleUrl>#restaurantStyle</styleUrl><Point><coordinates>-79.9342,32.7823</coordinates></Point></Placemark><Placemark id="placemark55"><name>Mellow Mushroom Pizza Bakers</name><description>259 E Broad St, Athens, GA</description><styleUrl>#restaurantStyle</styleUrl><Point><coordinates>-83.3747,33.9578</coordinates></Point></Placemark><Placemark id="placemark56"><name>Bucks Pizza of Edisto Beach Inc</name><description>114 Jungle Rd, Edisto Island, SC</description><styleUrl>#restaurantStyle</styleUrl><Point><coordinates>-80.298,32.504</coordinates></Point></Placemark><Placemark id="placemark57"><name>Anthony's Coal Fired Pizza</name><description>2203 S Federal Hwy, Fort Lauderdale, FL</description><styleUrl>#restaurantStyle</styleUrl><Point><coordinates>-80.1367,26.0947</coordinates></Point></Placemark><Placemark id="placemark58"><name>Giordano's</name><description>12151 S Apopka Vineland Rd, Orlando, FL</description><styleUrl>#restaurantStyle</styleUrl><Point><coordinates>-81.5062,28.3894</coordinates></Point></Placemark><Placemark id="placemark59"><name>Pizza Rustica</name><description>863 Washington Ave, Miami Beach, FL</description><styleUrl>#restaurantStyle</styleUrl><Point><coordinates>-80.1331,25.7791</coordinates></Point></Placemark><Placemark id="placemark60"><name>Mama Jennie's Italian Restaurant</name><description>11720 Ne 2nd Ave, North Miami, FL</description><styleUrl>#restaurantStyle</styleUrl><Point><coordinates>-80.1943,25.8828</coordinates></Point></Placemark><Placemark id="placemark61"><name>Anthony's Coal Fired Pizza</name><description>17901 Biscayne Blvd, Aventura, FL</description><styleUrl>#restaurantStyle</styleUrl><Point><coordinates>-80.1488,25.9411</coordinates></Point></Placemark><Placemark id="placemark62"><name>Anthony's Coal Fired Pizza</name><description>4527 Weston Rd, Weston, FL</description><styleUrl>#restaurantStyle</styleUrl><Point><coordinates>-80.3624,26.0654</coordinates></Point></Placemark><Placemark id="placemark63"><name>Mario the Baker Pizza &amp; Italian Restaurant</name><description>13695 W Dixie Hwy, North Miami, FL</description><styleUrl>#restaurantStyle</styleUrl><Point><coordinates>-80.1561,25.9297</coordinates></Point></Placemark><Placemark id="placemark64"><name>Big Cheese Pizza</name><description>8080 SW 67th Ave, Miami, FL</description><styleUrl>#restaurantStyle</styleUrl><Point><coordinates>-80.3011,25.696</coordinates></Point></Placemark><Placemark id="placemark65"><name>Ingleside Village Pizza</name><description>2396 Ingleside Ave, Macon, GA</description><styleUrl>#restaurantStyle</styleUrl><Point><coordinates>-83.6574,32.8538</coordinates></Point></Placemark><Placemark id="placemark66"><name>Ciao Bella Pizza Da Guglielmo</name><description>29 Highway 98 E, Destin, FL</description><styleUrl>#restaurantStyle</styleUrl><Point><coordinates>-86.5121,30.3956</coordinates></Point></Placemark><Placemark id="placemark67"><name>Papa John's Pizza</name><description>810 Russell Pkwy, Warner Robins, GA</description><styleUrl>#restaurantStyle</styleUrl><Point><coordinates>-83.6371,32.5939</coordinates></Point></Placemark><Placemark id="placemark68"><name>Papa John's Pizza: East Central Montgomery</name><description>2525 Madison Ave, Montgomery, AL</description><styleUrl>#restaurantStyle</styleUrl><Point><coordinates>-86.273,32.3811</coordinates></Point></Placemark><Placemark id="placemark69"><name>Cici's Pizza</name><description>6268 Atlanta Hwy, Montgomery, AL</description><styleUrl>#restaurantStyle</styleUrl><Point><coordinates>-86.1907,32.3822</coordinates></Point></Placemark><Placemark id="placemark70"><name>Papa John's Pizza</name><description>1210 E Jackson St, Thomasville, GA</description><styleUrl>#restaurantStyle</styleUrl><Point><coordinates>-83.9634,30.8491</coordinates></Point></Placemark><Placemark id="placemark71"><name>Papa John's Pizza</name><description>711 N Westover Blvd # G, Albany, GA</description><styleUrl>#restaurantStyle</styleUrl><Point><coordinates>-84.2231,31.614</coordinates></Point></Placemark><Placemark id="placemark72"><name>Mellow Mushroom Pizza Bakers</name><description>6100 Veterans Pkwy, Columbus, GA</description><styleUrl>#restaurantStyle</styleUrl><Point><coordinates>-84.9559,32.5321</coordinates></Point></Placemark><Placemark id="placemark73"><name>Star Pizza</name><description>2111 Norfolk St, Houston, TX</description><styleUrl>#restaurantStyle</styleUrl><Point><coordinates>-95.4111,29.7325</coordinates></Point></Placemark><Placemark id="placemark74"><name>Star Pizza II</name><description>77 Harvard St, Houston, TX</description><styleUrl>#restaurantStyle</styleUrl><Point><coordinates>-95.396,29.7708</coordinates></Point></Placemark><Placemark id="placemark75"><name>Brothers Pizzeria</name><description>1029 Highway 6 N # 100, Houston, TX</description><styleUrl>#restaurantStyle</styleUrl><Point><coordinates>-95.6436,29.7683</coordinates></Point></Placemark><Placemark id="placemark76"><name>11th Street Cafe Inc</name><description>748 E 11th St, Houston, TX</description><styleUrl>#restaurantStyle</styleUrl><Point><coordinates>-95.3889,29.7908</coordinates></Point></Placemark><Placemark id="placemark77"><name>California Pizza Kitchen</name><description>1705 Post Oak Blvd # A, Houston, TX</description><styleUrl>#restaurantStyle</styleUrl><Point><coordinates>-95.4612,29.7502</coordinates></Point></Placemark><Placemark id="placemark78"><name>Collina's Italian Cafe</name><description>3835 Richmond Ave, Houston, TX</description><styleUrl>#restaurantStyle</styleUrl><Point><coordinates>-95.439,29.7326</coordinates></Point></Placemark><Placemark id="placemark79"><name>Barry's Pizza &amp; Italian Diner</name><description>6003 Richmond Ave, Houston, TX</description><styleUrl>#restaurantStyle</styleUrl><Point><coordinates>-95.4844,29.7314</coordinates></Point></Placemark><Placemark id="placemark80"><name>Mario's Seawall Italian Restaurant</name><description>628 Seawall Blvd, Galveston, TX</description><styleUrl>#restaurantStyle</styleUrl><Point><coordinates>-94.7726,29.3045</coordinates></Point></Placemark><Placemark id="placemark81"><name>Campisi's Egyptian Restaurant</name><description>5610 E Mockingbird Ln, Dallas, TX</description><styleUrl>#restaurantStyle</styleUrl><Point><coordinates>-96.7718,32.8365</coordinates></Point></Placemark><Placemark id="placemark82"><name>Fat Joe's Pizza Pasta &amp; Bar</name><description>4721 W Park Blvd # 101, Plano, TX</description><styleUrl>#restaurantStyle</styleUrl><Point><coordinates>-96.7889,33.0271</coordinates></Point></Placemark><Placemark id="placemark83"><name>Saccone's Pizza</name><description>13812 N Highway 183, Austin, TX</description><styleUrl>#restaurantStyle</styleUrl><Point><coordinates>-97.9647,29.5695</coordinates></Point></Placemark><Placemark id="placemark84"><name>Fireside Pies</name><description>2820 N Henderson Ave, Dallas, TX</description><styleUrl>#restaurantStyle</styleUrl><Point><coordinates>-96.7841,32.8198</coordinates></Point></Placemark><Placemark id="placemark85"><name>Romeo's</name><description>1500 Barton Springs Rd, Austin, TX</description><styleUrl>#restaurantStyle</styleUrl><Point><coordinates>-97.76,30.2615</coordinates></Point></Placemark><Placemark id="placemark86"><name>Sandella's Cafe</name><description>5910 N Macarthur Blvd, Irving, TX</description><styleUrl>#restaurantStyle</styleUrl><Point><coordinates>-96.9612,32.892</coordinates></Point></Placemark><Placemark id="placemark87"><name>Mangia Chicago Stuffed Pizza</name><description>3500 Guadalupe St, Austin, TX</description><styleUrl>#restaurantStyle</styleUrl><Point><coordinates>-97.7391,30.3015</coordinates></Point></Placemark><Placemark id="placemark88"><name>Frank &amp; Angie's</name><description>508 West Ave, Austin, TX</description><styleUrl>#restaurantStyle</styleUrl><Point><coordinates>-97.7509,30.2694</coordinates></Point></Placemark><Placemark id="placemark89"><name>Pizzeria Bianco</name><description>623 E Adams St, Phoenix, AZ</description><styleUrl>#restaurantStyle</styleUrl><Point><coordinates>-112.066,33.4494</coordinates></Point></Placemark><Placemark id="placemark90"><name>Sammy's Woodfired Pizza</name><description>770 4th Ave, San Diego, CA</description><styleUrl>#restaurantStyle</styleUrl><Point><coordinates>-117.161,32.7134</coordinates></Point></Placemark><Placemark id="placemark91"><name>Casa Bianca Pizza Pie</name><description>1650 Colorado Blvd, Los Angeles, CA</description><styleUrl>#restaurantStyle</styleUrl><Point><coordinates>-118.205,34.1392</coordinates></Point></Placemark><Placemark id="placemark92"><name>Parkway Grill</name><description>510 S Arroyo Pkwy, Pasadena, CA</description><styleUrl>#restaurantStyle</styleUrl><Point><coordinates>-118.147,34.137</coordinates></Point></Placemark><Placemark id="placemark93"><name>California Pizza Kitchen</name><description>330 S Hope St, Los Angeles, CA</description><styleUrl>#restaurantStyle</styleUrl><Point><coordinates>-118.253,34.0533</coordinates></Point></Placemark><Placemark id="placemark94"><name>B J's Pizza &amp; Grill</name><description>200 Main St # 101, Huntington Beach, CA</description><styleUrl>#restaurantStyle</styleUrl><Point><coordinates>-118.001,33.6581</coordinates></Point></Placemark><Placemark id="placemark95"><name>B J's Restaurant &amp; Brewhouse</name><description>280 S Coast Hwy, Laguna Beach, CA</description><styleUrl>#restaurantStyle</styleUrl><Point><coordinates>-117.784,33.5421</coordinates></Point></Placemark><Placemark id="placemark96"><name>Beau Jo's Pizza</name><description>2710 S Colorado Blvd, Denver, CO</description><styleUrl>#restaurantStyle</styleUrl><Point><coordinates>-104.941,39.6673</coordinates></Point></Placemark><Placemark id="placemark97"><name>Pasquini's Pizzeria</name><description>1310 S Broadway, Denver, CO</description><styleUrl>#restaurantStyle</styleUrl><Point><coordinates>-104.987,39.6928</coordinates></Point></Placemark><Placemark id="placemark98"><name>Fargos Pizza Co</name><description>2910 E Platte Ave, Colorado Springs, CO</description><styleUrl>#restaurantStyle</styleUrl><Point><coordinates>-104.774,38.8398</coordinates></Point></Placemark><Placemark id="placemark99"><name>Old Chicago</name><description>1415 Market St, Denver, CO</description><styleUrl>#restaurantStyle</styleUrl><Point><coordinates>-105.001,39.7482</coordinates></Point></Placemark><Placemark id="placemark100"><name>Sink</name><description>1165 13th St, Boulder, CO</description><styleUrl>#restaurantStyle</styleUrl><Point><coordinates>-105.276,40.0082</coordinates></Point></Placemark><Placemark id="placemark101"><name>Ligori's Pizza &amp; Pasta</name><description>4421 Harrison Blvd, Ogden, UT</description><styleUrl>#restaurantStyle</styleUrl><Point><coordinates>-111.949,41.1827</coordinates></Point></Placemark><Placemark id="placemark102"><name>Old Chicago</name><description>1102 Pearl St, Boulder, CO</description><styleUrl>#restaurantStyle</styleUrl><Point><coordinates>-105.281,40.0176</coordinates></Point></Placemark><Placemark id="placemark103"><name>Boston's Restaurant &amp; Sports</name><description>620 E Disk Dr, Rapid City, SD</description><styleUrl>#restaurantStyle</styleUrl><Point><coordinates>-103.205,44.1069</coordinates></Point></Placemark><Placemark id="placemark104"><name>Chuck E Cheese's Pizza</name><description>100 24th St W # B, Billings, MT</description><styleUrl>#restaurantStyle</styleUrl><Point><coordinates>-108.576,45.7714</coordinates></Point></Placemark><Placemark id="placemark105"><name>Space Aliens Grill &amp; Bar</name><description>1304 E Century Ave, Bismarck, ND</description><styleUrl>#restaurantStyle</styleUrl><Point><coordinates>-100.772,46.8381</coordinates></Point></Placemark><Placemark id="placemark106"><name>2nd Street Bistro</name><description>123 North 2nd Street, Livingston, MT</description><styleUrl>#restaurantStyle</styleUrl><Point><coordinates>-110.561,45.661</coordinates></Point></Placemark><Placemark id="placemark107"><name>Domino's Pizza</name><description>1524 S Broadway # 1, Minot, ND</description><styleUrl>#restaurantStyle</styleUrl><Point><coordinates>-101.296,48.2197</coordinates></Point></Placemark><Placemark id="placemark108"><name>American Classic Pizzeria</name><description>1744 Grand Ave, Billings, MT</description><styleUrl>#restaurantStyle</styleUrl><Point><coordinates>-108.56,45.7841</coordinates></Point></Placemark><Placemark id="placemark109"><name>Godfather's Pizza</name><description>905 Main St, Billings, MT</description><styleUrl>#restaurantStyle</styleUrl><Point><coordinates>-108.471,45.8151</coordinates></Point></Placemark><Placemark id="placemark110"><name>Papa John's Pizza</name><description>605 Main St, Billings, MT</description><styleUrl>#restaurantStyle</styleUrl><Point><coordinates>-108.472,45.8102</coordinates></Point></Placemark><Placemark id="placemark111"><name>Aardvark Pizza &amp; Sub</name><description>304A Caribou St, Banff, AB</description><styleUrl>#restaurantStyle</styleUrl><Point><coordinates>-115.571,51.1765</coordinates></Point></Placemark><Placemark id="placemark112"><name>Jasper Pizza Place</name><description>402 Connaught Dr, Jasper, AB</description><styleUrl>#restaurantStyle</styleUrl><Point><coordinates>-118.079,52.8791</coordinates></Point></Placemark><Placemark id="placemark113"><name>Odyssey Pizza &amp; Steak House</name><description>3-3814 Bow Trail SW, Calgary, AB</description><styleUrl>#restaurantStyle</styleUrl><Point><coordinates>-114.141,51.0452</coordinates></Point></Placemark><Placemark id="placemark114"><name>Basil's Pizza</name><description>2118 33 Avenue SW, Calgary, AB</description><styleUrl>#restaurantStyle</styleUrl><Point><coordinates>-114.11,51.024</coordinates></Point></Placemark><Placemark id="placemark115"><name>Castle Pizza &amp; Donair</name><description>7724 Elbow Drive SW, Calgary, AB</description><styleUrl>#restaurantStyle</styleUrl><Point><coordinates>-114.083,50.9845</coordinates></Point></Placemark><Placemark id="placemark116"><name>Santa Lucia Italian Restaurant</name><description>714 8 St, Canmore, AB</description><styleUrl>#restaurantStyle</styleUrl><Point><coordinates>-115.359,51.0892</coordinates></Point></Placemark><Placemark id="placemark117"><name>Tops Pizza &amp; Steak House No 3</name><description>7-5602 4 Street NW, Calgary, AB</description><styleUrl>#restaurantStyle</styleUrl><Point><coordinates>-114.071,51.1012</coordinates></Point></Placemark><Placemark id="placemark118"><name>Evvia Restaurant</name><description>837 Main St, Canmore, AB</description><styleUrl>#restaurantStyle</styleUrl><Point><coordinates>-115.362,51.0892</coordinates></Point></Placemark><Placemark id="placemark119"><name>D&amp;#39;Bronx</name><description>3904 Bell St, Kansas City, MO</description><styleUrl>#restaurantStyle</styleUrl><Point><coordinates>-94.6061,39.0572</coordinates></Point></Placemark><Placemark id="placemark120"><name>Cicero's Restaurant &amp; Entrtnmt</name><description>6691 Delmar Blvd, St Louis, MO</description><styleUrl>#restaurantStyle</styleUrl><Point><coordinates>-90.3084,38.6563</coordinates></Point></Placemark><Placemark id="placemark121"><name>Hideaway Pizza</name><description>6616 N Western Ave, Oklahoma City, OK</description><styleUrl>#restaurantStyle</styleUrl><Point><coordinates>-97.5298,35.5391</coordinates></Point></Placemark><Placemark id="placemark122"><name>Fortel's Pizza Den</name><description>7932 Mackenzie Rd, St Louis, MO</description><styleUrl>#restaurantStyle</styleUrl><Point><coordinates>-90.3208,38.5664</coordinates></Point></Placemark><Placemark id="placemark123"><name>Hideaway Pizza</name><description>7877 E 51st St, Tulsa, OK</description><styleUrl>#restaurantStyle</styleUrl><Point><coordinates>-95.8892,36.0899</coordinates></Point></Placemark><Placemark id="placemark124"><name>Farotto's Catering</name><description>9525 Manchester Rd, Webster Groves, MO</description><styleUrl>#restaurantStyle</styleUrl><Point><coordinates>-90.3644,38.6093</coordinates></Point></Placemark><Placemark id="placemark125"><name>California Pizza Kitchen</name><description>1493 Saint Louis Galleria, St Louis, MO</description><styleUrl>#restaurantStyle</styleUrl><Point><coordinates>-90.3459,38.6336</coordinates></Point></Placemark><Placemark id="placemark126"><name>D'Bronx</name><description>2450 Grand Blvd # 124, Kansas City, MO</description><styleUrl>#restaurantStyle</styleUrl><Point><coordinates>-94.5818,39.0827</coordinates></Point></Placemark><Placemark id="placemark127"><name>Giuseppe's Depot Restaurant</name><description>10 S Sierra Madre St, Colorado Springs, CO</description><styleUrl>#restaurantStyle</styleUrl><Point><coordinates>-104.828,38.8345</coordinates></Point></Placemark><Placemark id="placemark128"><name>Old Chicago</name><description>1415 Market St, Denver, CO</description><styleUrl>#restaurantStyle</styleUrl><Point><coordinates>-105.001,39.7482</coordinates></Point></Placemark><Placemark id="placemark129"><name>Brick Oven Restaurant</name><description>111 E 800 N, Provo, UT</description><styleUrl>#restaurantStyle</styleUrl><Point><coordinates>-111.656,40.2445</coordinates></Point></Placemark><Placemark id="placemark130"><name>Zachary's Chicago Pizza</name><description>5801 College Ave, Oakland, CA</description><styleUrl>#restaurantStyle</styleUrl><Point><coordinates>-122.252,37.8462</coordinates></Point></Placemark><Placemark id="placemark131"><name>Zachary's Chicago Pizza</name><description>1853 Solano Ave, Berkeley, CA</description><styleUrl>#restaurantStyle</styleUrl><Point><coordinates>-122.278,37.8914</coordinates></Point></Placemark><Placemark id="placemark132"><name>Cheese Board Pizza</name><description>1512 Shattuck Ave, Berkeley, CA</description><styleUrl>#restaurantStyle</styleUrl><Point><coordinates>-122.269,37.88</coordinates></Point></Placemark><Placemark id="placemark133"><name>Goat Hill Pizza</name><description>300 Connecticut St, San Francisco, CA</description><styleUrl>#restaurantStyle</styleUrl><Point><coordinates>-122.398,37.7624</coordinates></Point></Placemark><Placemark id="placemark134"><name>Tommaso Ristorante Italiano</name><description>1042 Kearny St, San Francisco, CA</description><styleUrl>#restaurantStyle</styleUrl><Point><coordinates>-122.405,37.7974</coordinates></Point></Placemark><Placemark id="placemark135"><name>Little Star Pizza LLC</name><description>846 Divisadero St, San Francisco, CA</description><styleUrl>#restaurantStyle</styleUrl><Point><coordinates>-122.438,37.7775</coordinates></Point></Placemark><Placemark id="placemark136"><name>Pauline's Pizza</name><description>260 Valencia, San Francisco, CA</description><styleUrl>#restaurantStyle</styleUrl><Point><coordinates>-122.422,37.7687</coordinates></Point></Placemark><Placemark id="placemark137"><name>Villa Romana Pizzeria &amp; Rstrnt</name><description>731 Irving St, San Francisco, CA</description><styleUrl>#restaurantStyle</styleUrl><Point><coordinates>-122.466,37.7641</coordinates></Point></Placemark><Placemark id="placemark138"><name>Amici's East Coast Pizzeria</name><description>69 E 3rd Ave, San Mateo, CA</description><styleUrl>#restaurantStyle</styleUrl><Point><coordinates>-122.325,37.5639</coordinates></Point></Placemark><Placemark id="placemark139"><name>Amici's East Coast Pizzeria</name><description>226 Redwood Shores Pkwy, Redwood City, CA</description><styleUrl>#restaurantStyle</styleUrl><Point><coordinates>-122.252,37.5205</coordinates></Point></Placemark><Placemark id="placemark140"><name>North Beach Pizza</name><description>240 E 3rd Ave, San Mateo, CA</description><styleUrl>#restaurantStyle</styleUrl><Point><coordinates>-122.323,37.5653</coordinates></Point></Placemark><Placemark id="placemark141"><name>Patxi's Chicago Pizza</name><description>441 Emerson St, Palo Alto, CA</description><styleUrl>#restaurantStyle</styleUrl><Point><coordinates>-122.164,37.4451</coordinates></Point></Placemark><Placemark id="placemark142"><name>Pizz'a Chicago</name><description>4115 El Camino Real, Palo Alto, CA</description><styleUrl>#restaurantStyle</styleUrl><Point><coordinates>-122.126,37.4141</coordinates></Point></Placemark><Placemark id="placemark143"><name>California Pizza Kitchen</name><description>531 Cowper St, Palo Alto, CA</description><styleUrl>#restaurantStyle</styleUrl><Point><coordinates>-122.159,37.4481</coordinates></Point></Placemark><Placemark id="placemark144"><name>Windy City Pizza</name><description>35 Bovet Rd, San Mateo, CA</description><styleUrl>#restaurantStyle</styleUrl><Point><coordinates>-122.315,37.5516</coordinates></Point></Placemark><Placemark id="placemark145"><name>Applewood Pizza 2 Go</name><description>1001 El Camino Real, Menlo Park, CA</description><styleUrl>#restaurantStyle</styleUrl><Point><coordinates>-122.182,37.453</coordinates></Point></Placemark><Placemark id="placemark146"><name>Pizza Antica</name><description>334 Santana Row # 1065, San Jose, CA</description><styleUrl>#restaurantStyle</styleUrl><Point><coordinates>-121.948,37.3218</coordinates></Point></Placemark><Placemark id="placemark147"><name>Pizz'a Chicago</name><description>155 W San Fernando St, San Jose, CA</description><styleUrl>#restaurantStyle</styleUrl><Point><coordinates>-121.892,37.3333</coordinates></Point></Placemark><Placemark id="placemark148"><name>House of Pizza</name><description>527 S Almaden Ave, San Jose, CA</description><styleUrl>#restaurantStyle</styleUrl><Point><coordinates>-121.888,37.3264</coordinates></Point></Placemark><Placemark id="placemark149"><name>Amici's East Coast Pizzeria</name><description>225 W Santa Clara St, San Jose, CA</description><styleUrl>#restaurantStyle</styleUrl><Point><coordinates>-121.894,37.3347</coordinates></Point></Placemark><Placemark id="placemark150"><name>Fiorillo's Restaurant</name><description>638 El Camino Real, Santa Clara, CA</description><styleUrl>#restaurantStyle</styleUrl><Point><coordinates>-121.943,37.3546</coordinates></Point></Placemark><Placemark id="placemark151"><name>Tony &amp; Alba's Pizza &amp; Pasta</name><description>3137 Stevens Creek Blvd, San Jose, CA</description><styleUrl>#restaurantStyle</styleUrl><Point><coordinates>-121.952,37.3233</coordinates></Point></Placemark><Placemark id="placemark152"><name>Giorgio's</name><description>1445 Foxworthy Ave, San Jose, CA</description><styleUrl>#restaurantStyle</styleUrl><Point><coordinates>-121.893,37.2746</coordinates></Point></Placemark><Placemark id="placemark153"><name>Round Table Pizza</name><description>4302 Moorpark Ave, San Jose, CA</description><styleUrl>#restaurantStyle</styleUrl><Point><coordinates>-121.978,37.3159</coordinates></Point></Placemark></Document></kml>
